{
  "type": "FeatureCollection",
  "generator": "overpass-turbo",
  "copyright": "The data included in this document is from www.openstreetmap.org. The data is made available under ODbL.",
  "timestamp": "2025-12-12T19:35:54Z",
  "features": [
    {
      "type": "Feature",
      "properties": {
        "@id": "way/28707473",
        "contact:website": "https://www.catedralaltapatagonia.com",
        "landuse": "winter_sports",
        "name": "Cerro Catedral",
        "operator": "Catedral Alta Patagonia",
        "@geometry": "center"
      },
      "geometry": {
        "type": "Point",
        "coordinates": [
          -71.4646471,
          -41.1666796
        ]
      },
      "id": "way/28707473"
    },
    {
      "type": "Feature",
      "properties": {
        "@id": "way/378344849",
        "contact:website": "https://skilahoya.com/",
        "landuse": "winter_sports",
        "name": "La Hoya",
        "wikidata": "Q3209806",
        "wikipedia": "es:La Hoya (Argentina)",
        "@geometry": "center"
      },
      "geometry": {
        "type": "Point",
        "coordinates": [
          -71.2576458,
          -42.821551
        ]
      },
      "id": "way/378344849"
    },
    {
      "type": "Feature",
      "properties": {
        "@id": "way/705875705",
        "addr:housenumber": "Km 50",
        "addr:street": "Ruta Provincial 13",
        "landuse": "winter_sports",
        "name": "Parque de Nieve Primeros Pinos",
        "@geometry": "center"
      },
      "geometry": {
        "type": "Point",
        "coordinates": [
          -70.5795715,
          -38.8711865
        ]
      },
      "id": "way/705875705"
    },
    {
      "type": "Feature",
      "properties": {
        "@id": "way/705875874",
        "addr:city": "Villa Pehuenia",
        "addr:housenumber": "Km 125",
        "addr:street": "Ruta Provincial 13",
        "contact:website": "http://www.cerrobateamahuida.com/",
        "landuse": "winter_sports",
        "name": "Parque de Nieve Batea Mahuida",
        "@geometry": "center"
      },
      "geometry": {
        "type": "Point",
        "coordinates": [
          -71.2229566,
          -38.8317057
        ]
      },
      "id": "way/705875874"
    },
    {
      "type": "Feature",
      "properties": {
        "@id": "way/934033486",
        "contact:phone": "+54 0810-345-0168",
        "contact:website": "https://www.cerrobayo.com.ar/",
        "landuse": "winter_sports",
        "name": "Cerro Bayo",
        "operator": "Cerro Bayo S.A.",
        "wikidata": "Q313632",
        "wikipedia": "es:Cerro Bayo",
        "@geometry": "center"
      },
      "geometry": {
        "type": "Point",
        "coordinates": [
          -71.6020602,
          -40.7497454
        ]
      },
      "id": "way/934033486"
    },
    {
      "type": "Feature",
      "properties": {
        "@id": "way/934096931",
        "contact:website": "https://laderas.com.ar/",
        "landuse": "winter_sports",
        "name": "Cerro Perito Moreno",
        "operator": "LADERAS S.A.",
        "@geometry": "center"
      },
      "geometry": {
        "type": "Point",
        "coordinates": [
          -71.5882853,
          -41.7850392
        ]
      },
      "id": "way/934096931"
    },
    {
      "type": "Feature",
      "properties": {
        "@id": "way/934098320",
        "contact:website": "https://www.chapelco.com/",
        "landuse": "winter_sports",
        "name": "Chapelco Ski Resort",
        "@geometry": "center"
      },
      "geometry": {
        "type": "Point",
        "coordinates": [
          -71.3026685,
          -40.2095781
        ]
      },
      "id": "way/934098320"
    },
    {
      "type": "Feature",
      "properties": {
        "@id": "way/934099771",
        "contact:website": "http://www.skipucon.cl/",
        "landuse": "winter_sports",
        "name": "Centro Ski Pucón",
        "wikidata": "Q17626264",
        "wikimedia_commons": "Category:Centro de ski Pucón",
        "wikipedia": "es:Pucón (centro de esquí)",
        "@geometry": "center"
      },
      "geometry": {
        "type": "Point",
        "coordinates": [
          -71.9587621,
          -39.3922663
        ]
      },
      "id": "way/934099771"
    },
    {
      "type": "Feature",
      "properties": {
        "@id": "way/934101794",
        "contact:email": "info@volcanosorno.com",
        "contact:website": "https://www.volcanosorno.com/",
        "landuse": "winter_sports",
        "name": "Volcán Osorno",
        "@geometry": "center"
      },
      "geometry": {
        "type": "Point",
        "coordinates": [
          -72.5231996,
          -41.1216527
        ]
      },
      "id": "way/934101794"
    },
    {
      "type": "Feature",
      "properties": {
        "@id": "way/934103782",
        "contact:website": "https://www.laslenas.com/",
        "landuse": "winter_sports",
        "name": "Las Leñas",
        "@geometry": "center"
      },
      "geometry": {
        "type": "Point",
        "coordinates": [
          -70.1030451,
          -35.1366103
        ]
      },
      "id": "way/934103782"
    },
    {
      "type": "Feature",
      "properties": {
        "@id": "way/934285904",
        "contact:website": "https://www.skiportillo.com/",
        "landuse": "winter_sports",
        "name": "Portillo",
        "operator": "Ski Portillo",
        "@geometry": "center"
      },
      "geometry": {
        "type": "Point",
        "coordinates": [
          -70.1318019,
          -32.8384045
        ]
      },
      "id": "way/934285904"
    },
    {
      "type": "Feature",
      "properties": {
        "@id": "way/934287875",
        "contact:website": "https://chapaverde.cl/",
        "landuse": "winter_sports",
        "name": "Centro de Ski Chapa Verde",
        "@geometry": "center"
      },
      "geometry": {
        "type": "Point",
        "coordinates": [
          -70.4101716,
          -34.0472321
        ]
      },
      "id": "way/934287875"
    },
    {
      "type": "Feature",
      "properties": {
        "@id": "way/934289257",
        "contact:facebook": "https://www.facebook.com/lospuquios",
        "contact:instagram": "https://www.instagram.com/lospuquios/",
        "contact:website": "https://www.lospuquios.com.ar/",
        "landuse": "winter_sports",
        "name": "Los Puquios",
        "@geometry": "center"
      },
      "geometry": {
        "type": "Point",
        "coordinates": [
          -69.8906008,
          -32.8230153
        ]
      },
      "id": "way/934289257"
    },
    {
      "type": "Feature",
      "properties": {
        "@id": "way/934291345",
        "landuse": "winter_sports",
        "name": "Los Penitentes",
        "@geometry": "center"
      },
      "geometry": {
        "type": "Point",
        "coordinates": [
          -69.8343652,
          -32.8311549
        ]
      },
      "id": "way/934291345"
    },
    {
      "type": "Feature",
      "properties": {
        "@id": "way/1362374789",
        "landuse": "winter_sports",
        "name": "Caviahue",
        "website": "https://www.caviahue.com/invierno",
        "@geometry": "center"
      },
      "geometry": {
        "type": "Point",
        "coordinates": [
          -71.0945631,
          -37.8547826
        ]
      },
      "id": "way/1362374789"
    },
    {
      "type": "Feature",
      "properties": {
        "@id": "way/1388302700",
        "area": "yes",
        "landuse": "winter_sports",
        "name": "Estación Esquí Antillanca",
        "sport": "skiing",
        "@geometry": "center"
      },
      "geometry": {
        "type": "Point",
        "coordinates": [
          -72.1987628,
          -40.7672544
        ]
      },
      "id": "way/1388302700"
    },
    {
      "type": "Feature",
      "properties": {
        "@id": "way/1412281678",
        "area": "yes",
        "landuse": "winter_sports",
        "name": "Corralco",
        "sport": "skiing",
        "@geometry": "center"
      },
      "geometry": {
        "type": "Point",
        "coordinates": [
          -71.5641744,
          -38.3977221
        ]
      },
      "id": "way/1412281678"
    }
  ]
}